[{"ParkName":"Abraham Lincoln Birthplace National Historical Park","ParkID":"77E0D7F0-1942-494A-ACE2-9004D2BDC59E","Lat":"37.5858662","Lon":"-85.67330523"},{"ParkName":"Acadia National Park","ParkID":"6DA17C86-088E-4B4D-B862-7C1BD5CF236B","Lat":"44.409286","Lon":"-68.247501"},{"ParkName":"Adams National Historical Park","ParkID":"E4C7784E-66A0-4D44-87D0-3E072F5FEF43","Lat":"42.2553961","Lon":"-71.01160356"},{"ParkName":"African American Civil War Memorial","ParkID":"1A47416F-DAA3-4137-9F30-14AF86B4E547","Lat":"38.9166","Lon":"-77.026"},{"ParkName":"African Burial Ground National Monument","ParkID":"E6E1D22A-7A89-47F8-813C-B611059A8CF9","Lat":"40.71452681","Lon":"-74.00447358"},{"ParkName":"Agate Fossil Beds National Monument","ParkID":"64B9F127-31ED-43C9-882D-D7CD471AF314","Lat":"42.42170419","Lon":"-103.753886"},{"ParkName":"Ala Kahakai National Historic Trail","ParkID":"3B8307B3-54AB-4E5F-ACBC-8DECB98AD5F1","Lat":"19.144668109","Lon":"-155.890734294"},{"ParkName":"Alagnak Wild River","ParkID":"C4E1A9A4-D121-4734-94FA-7788A93C2AAA","Lat":"59.05180188","Lon":"-156.112002"},{"ParkName":"Alaska Public Lands","ParkID":"7D6098F9-3F75-4775-A56D-CD9C7F9A9488","Lat":"61.2188","Lon":"-149.894536"},{"ParkName":"Alcatraz Island","ParkID":"C08AD828-98FF-478E-A63C-614E7534274B","Lat":"37.82676234","Lon":"-122.4230206"},{"ParkName":"Aleutian Islands World War II National Historic Area","ParkID":"94B046DC-2AFD-4ECB-A60D-CE210A8550B1","Lat":"53.9143","Lon":"-166.5197"},{"ParkName":"Alibates Flint Quarries National Monument","ParkID":"6D82D070-995A-4524-A56E-C1CE182E7D9B","Lat":"35.5819662","Lon":"-101.6717008"},{"ParkName":"Allegheny Portage Railroad National Historic Site","ParkID":"3350C18C-8E07-487B-930E-37AD873D31AD","Lat":"40.42977467","Lon":"-78.57431622"},{"ParkName":"Amache National Historic Site","ParkID":"D35004EF-5F5A-4DA4-8716-5141BE5C933C","Lat":"38.04962","Lon":"-102.32903"},{"ParkName":"American Memorial Park","ParkID":"A0B4CA5E-608A-4DF2-8EFB-E2E4619EA243","Lat":"15.21680033","Lon":"145.7231096"},{"ParkName":"Amistad National Recreation Area","ParkID":"34CB30BA-8A5F-4563-AA34-6633708DD9DC","Lat":"29.53539777","Lon":"-101.075821"},{"ParkName":"Anacostia Park","ParkID":"9463E25C-7342-4A34-9537-4A6DA74B2B06","Lat":"38.8782","Lon":"-76.9703"},{"ParkName":"Andersonville National Historic Site","ParkID":"00E65872-53F7-4C9B-BD29-B9BC99930D0D","Lat":"32.19831758","Lon":"-84.12988898"},{"ParkName":"Andrew Johnson National Historic Site","ParkID":"2ED6E071-57AA-4B08-8DDA-5CB09FBB75C8","Lat":"36.15624509","Lon":"-82.83709021"},{"ParkName":"Aniakchak National Monument &amp; Preserve","ParkID":"7FF37F14-88C8-469E-A447-ACE6D9AF44D2","Lat":"56.85317675","Lon":"-157.5544362"},{"ParkName":"Antietam National Battlefield","ParkID":"8415526C-C932-4236-A634-2D89DF718936","Lat":"39.46763452","Lon":"-77.73828017"},{"ParkName":"Apostle Islands National Lakeshore","ParkID":"D84122DD-1B0E-4D13-927C-5D6D2A0D200E","Lat":"46.96240467","Lon":"-90.66045665"},{"ParkName":"Appalachian National Scenic Trail","ParkID":"FAEF5684-83A4-4CF2-A701-60CF8D4014BD","Lat":"40.41029575","Lon":"-76.4337548"},{"ParkName":"Appomattox Court House National Historical Park","ParkID":"16CCCC56-1DC1-47D6-AE91-E939955BFC53","Lat":"37.38022164","Lon":"-78.79856982"},{"ParkName":"Arches National Park","ParkID":"36240051-018E-4915-B6EA-3F1A7F24FBE4","Lat":"38.72261844","Lon":"-109.5863666"},{"ParkName":"Arkansas Post National Memorial","ParkID":"6876F4F4-9B8F-4648-89EA-C1BBF770C494","Lat":"34.00389998","Lon":"-91.30837178"},{"ParkName":"Arlington House, The Robert E. Lee Memorial","ParkID":"E84B1E08-CCE8-4FFF-8DB6-B92F40953225","Lat":"38.8822021484","Lon":"-77.0734786987"},{"ParkName":"Assateague Island National Seashore","ParkID":"307BE169-345D-472C-8128-20F1D59864A7","Lat":"38.05593172","Lon":"-75.24524611"},{"ParkName":"Aztec Ruins National Monument","ParkID":"CD54150B-24F6-4B96-8D6F-B23AF92A70F2","Lat":"36.83682216","Lon":"-107.9999245"},{"ParkName":"Badlands National Park","ParkID":"B170CCF7-7AB9-48FF-950E-31815FD4DBB2","Lat":"43.68584846","Lon":"-102.482942"},{"ParkName":"Baltimore-Washington Parkway","ParkID":"A21F01BC-9E47-4DBE-8655-A1651FC2C1B1","Lat":"39.02604289","Lon":"-76.85410921"},{"ParkName":"Bandelier National Monument","ParkID":"E28CA30C-2D81-4394-81E9-67677C412115","Lat":"35.77898596","Lon":"-106.3317124"},{"ParkName":"Belmont-Paul Women's Equality National Monument","ParkID":"E7E4E103-5FA9-45AC-8843-05DE554CDBB7","Lat":"38.89231541","Lon":"-77.00381882"},{"ParkName":"Bent's Old Fort National Historic Site","ParkID":"87F9EFC7-1951-4250-A367-644EC5C4E6A2","Lat":"38.03977546","Lon":"-103.4266499"},{"ParkName":"Bering Land Bridge National Preserve","ParkID":"EE1F4878-00FB-4760-A77F-EA76DB8DEFD9","Lat":"65.96087902","Lon":"-164.4086432"},{"ParkName":"Big Bend National Park","ParkID":"C9056F71-7162-4208-8AE9-2D0AEFA594FD","Lat":"29.29817767","Lon":"-103.2297897"},{"ParkName":"Big Cypress National Preserve","ParkID":"E0F4D5E3-3E4A-4345-B86A-1B0CAD7461F1","Lat":"25.97079602","Lon":"-81.08120629"},{"ParkName":"Big Hole National Battlefield","ParkID":"3262234F-A56A-447D-AE6C-F5C734ABD3A4","Lat":"45.64647324","Lon":"-113.6458443"},{"ParkName":"Big South Fork National River &amp; Recreation Area","ParkID":"61EC5C9A-1A38-4040-AE38-E62FD2A9A836","Lat":"36.5348388","Lon":"-84.66506688"},{"ParkName":"Big Thicket National Preserve","ParkID":"3AA12AD8-4FEB-491D-AEB2-CC0F74CD00E0","Lat":"30.457983431","Lon":"-94.386742115"},{"ParkName":"Bighorn Canyon National Recreation Area","ParkID":"7568A0D8-73B1-44E6-82C7-E10BA1872209","Lat":"45.13154227","Lon":"-108.1443943"},{"ParkName":"Birmingham Civil Rights National Monument","ParkID":"99907F85-7E09-40FE-BF5E-A9AB7F09A7E2","Lat":"33.5154266357","Lon":"-86.814666748"},{"ParkName":"Biscayne National Park","ParkID":"FBF9F793-5114-4B61-A5BA-6F9ADDFDF459","Lat":"25.490587","Lon":"-80.21023851"},{"ParkName":"Black Canyon Of The Gunnison National Park","ParkID":"BDBD573F-97EF-44E7-A579-471679F2C42A","Lat":"38.57779869","Lon":"-107.7242756"},{"ParkName":"Blackstone River Valley National Historical Park","ParkID":"A36366E7-5663-4531-B0CE-D58928C6D01B","Lat":"41.8775792792","Lon":"-71.382433945"},{"ParkName":"Blackwell School National Historic Site","ParkID":"4A71FEB9-5968-4A27-9794-F202C96FFA55","Lat":"","Lon":""},{"ParkName":"Blue Ridge Parkway","ParkID":"712044CE-4C85-48C2-813E-310A9C6C74E1","Lat":"35.5657195274","Lon":"-82.486484587"},{"ParkName":"Bluestone National Scenic River","ParkID":"14025CA9-91DE-4D36-B4CA-9880463C3BC2","Lat":"37.56577087","Lon":"-80.98366657"},{"ParkName":"Booker T Washington National Monument","ParkID":"6278FE68-139E-4758-A6DE-9A0437F777B5","Lat":"37.11520539","Lon":"-79.73185833"},{"ParkName":"Boston African American National Historic Site","ParkID":"87F00684-8E1F-4E12-B463-2B5B929A0C74","Lat":"42.35908295","Lon":"-71.06764181"},{"ParkName":"Boston Harbor Islands National Recreation Area","ParkID":"65E0DF4A-4082-4B48-93BD-5021987CDD7A","Lat":"42.30905526","Lon":"-70.93941138"},{"ParkName":"Boston National Historical Park","ParkID":"81F81EBD-0FE7-4811-88EF-AB071E737D97","Lat":"42.36957407","Lon":"-71.05536763"},{"ParkName":"Brices Cross Roads National Battlefield Site","ParkID":"F6555AB7-654F-4418-8827-F91F54536C04","Lat":"34.50611958","Lon":"-88.72889343"},{"ParkName":"Brown v. Board of Education National Historical Park","ParkID":"E2F59F29-1F3A-43B9-A361-7E74E5FDDEB1","Lat":"39.03787665","Lon":"-95.67614437"},{"ParkName":"Bryce Canyon National Park","ParkID":"6B1D053D-714F-46D1-B410-04BE868F14C1","Lat":"37.58399144","Lon":"-112.1826689"},{"ParkName":"Buck Island Reef National Monument","ParkID":"1172F473-8129-42CA-9A47-C9D0AC5CAF66","Lat":"17.81026717","Lon":"-64.6222179"},{"ParkName":"Buffalo National River","ParkID":"DBD2FCBF-D0DD-4262-A04E-93090888F0F5","Lat":"36.04116481","Lon":"-92.90761584"},{"ParkName":"Cabrillo National Monument","ParkID":"2DB09FB7-0408-44C9-8083-8F50039BD6DA","Lat":"32.6722503","Lon":"-117.2415985"},{"ParkName":"California National Historic Trail","ParkID":"B39C368F-CB27-49EC-B2A9-E6C1552430FB","Lat":"42.3999643979","Lon":"-108.702415369"},{"ParkName":"Camp Nelson National Monument","ParkID":"2FB7A664-0F66-49A3-9460-194F4073BA3F","Lat":"37.7970179913","Lon":"-84.598168306"},{"ParkName":"Canaveral National Seashore","ParkID":"FFD294C0-8027-42EC-B395-9C3BF2B80F49","Lat":"28.78637529","Lon":"-80.75419576"},{"ParkName":"Cane River Creole National Historical Park","ParkID":"55ABA58B-B19E-4851-BDE1-1C0712B2BE2C","Lat":"31.65408447","Lon":"-93.00131977"},{"ParkName":"Canyon de Chelly National Monument","ParkID":"869BAD2B-C46F-4FEB-891B-EBA119B64B48","Lat":"36.14319567","Lon":"-109.3388303"},{"ParkName":"Canyonlands National Park","ParkID":"319E07D8-E176-41F8-98A9-1E3F8099D0AB","Lat":"38.24555783","Lon":"-109.8801624"},{"ParkName":"Cape Cod National Seashore","ParkID":"DE0A8012-5324-4F5C-98DA-0EE6589FDFB3","Lat":"41.92381465","Lon":"-70.04319832"},{"ParkName":"Cape Hatteras National Seashore","ParkID":"7B9F59AE-D223-4A99-B6DF-A418D876DD82","Lat":"35.41370839","Lon":"-75.65061112"},{"ParkName":"Cape Henry Memorial Part of Colonial National Historical Park","ParkID":"3A2AEA7C-8896-4445-9763-932B4A74CF34","Lat":"36.9278094","Lon":"-76.0088219"},{"ParkName":"Cape Krusenstern National Monument","ParkID":"77566B98-D9CC-40FB-AA6E-FAA0F56E2059","Lat":"67.41499986","Lon":"-163.5037786"},{"ParkName":"Cape Lookout National Seashore","ParkID":"3BA4ACE6-0FFE-4B56-8C07-B3F05DC304DB","Lat":"34.8267961","Lon":"-76.34319082"},{"ParkName":"Capitol Hill Parks","ParkID":"96DC2172-0201-4ABB-BD77-2687F4726C9B","Lat":"38.889993","Lon":"-76.990332"},{"ParkName":"Capitol Reef National Park","ParkID":"2F05E2B8-CDA3-434E-9C4C-C7DD828CAC3B","Lat":"38.2821653131","Lon":"-111.247048378"},{"ParkName":"Captain John Smith Chesapeake National Historic Trail","ParkID":"481CEBB8-1942-4FAE-8D89-9902E7B9EECA","Lat":"38.971601","Lon":"-76.483355"},{"ParkName":"Capulin Volcano National Monument","ParkID":"93BB79F9-D700-4202-B21C-B2354617A729","Lat":"36.78171096","Lon":"-103.9710427"},{"ParkName":"Carl Sandburg Home National Historic Site","ParkID":"6E9B2F16-4CFE-49B2-A95E-87E4F02E79FF","Lat":"35.26815509","Lon":"-82.45106258"},{"ParkName":"Carlsbad Caverns National Park","ParkID":"6FDE39B1-AB4A-4C9A-A5CD-4AF67601CD78","Lat":"32.14089463","Lon":"-104.5529688"},{"ParkName":"Carter G. Woodson Home National Historic Site","ParkID":"D040C2B5-BFCD-4DED-AADC-BA28E29CC560","Lat":"38.91089286","Lon":"-77.02431104"},{"ParkName":"Casa Grande Ruins National Monument","ParkID":"FF6B2CDF-10F5-4A7F-9437-74C1E7104C65","Lat":"32.99702582","Lon":"-111.5325383"},{"ParkName":"Castillo de San Marcos National Monument","ParkID":"E455313B-782A-4CDC-A6A5-8B506FA3A4C1","Lat":"29.89785701","Lon":"-81.31217173"},{"ParkName":"Castle Clinton National Monument","ParkID":"061F7BA2-8C57-4471-A31E-302AD99E3F6A","Lat":"40.70347795","Lon":"-74.01680558"},{"ParkName":"Castle Mountains National Monument","ParkID":"872417E6-2F91-4FDA-89A7-865B51B22332","Lat":"35.29156348","Lon":"-115.0935606"},{"ParkName":"Catoctin Mountain Park","ParkID":"2977669B-4B2E-4044-B2CC-701D9521E4AC","Lat":"39.65068457","Lon":"-77.46417665"},{"ParkName":"Cedar Breaks National Monument","ParkID":"DFC1B0DB-832E-4C21-9CB9-79FB726B97D5","Lat":"37.63545562","Lon":"-112.845268"},{"ParkName":"Cedar Creek &amp; Belle Grove National Historical Park","ParkID":"387A28F2-022F-4C06-A486-E9E7777B12C2","Lat":"39.0093576","Lon":"-78.30618934"},{"ParkName":"Chaco Culture National Historical Park","ParkID":"9C730246-CCB2-496F-AD0E-1D31D76C4C45","Lat":"36.03963414","Lon":"-107.9560076"},{"ParkName":"Chamizal National Memorial","ParkID":"EA328EBD-71CC-49B9-8F64-97C8A188BCA4","Lat":"31.76729634","Lon":"-106.4544011"},{"ParkName":"Channel Islands National Park","ParkID":"5595FC7A-F218-4439-8D2E-F47449838820","Lat":"33.98680093","Lon":"-119.9112735"},{"ParkName":"Charles Pinckney National Historic Site","ParkID":"08EFF7E4-0FE4-4402-B23A-124EB8AAC249","Lat":"32.84577392","Lon":"-79.82487582"},{"ParkName":"Charles Young Buffalo Soldiers National Monument","ParkID":"22177869-21C7-49A1-961C-3F2114F01007","Lat":"39.70817829","Lon":"-83.89328575"},{"ParkName":"Chattahoochee River National Recreation Area","ParkID":"021F297B-D672-4794-8C5E-BB58743F252A","Lat":"33.99698333","Lon":"-84.28953177"},{"ParkName":"Chesapeake &amp; Ohio Canal National Historical Park","ParkID":"9192FFEE-4D88-4A03-A054-F47C33F0C3E9","Lat":"39.000283692","Lon":"-77.2481399539"},{"ParkName":"Chesapeake Bay","ParkID":"25554F74-A4AB-4C49-9071-341F00F0DAB8","Lat":"38.971601","Lon":"-76.483355"},{"ParkName":"Chickamauga &amp; Chattanooga National Military Park","ParkID":"FD536267-125D-4CEB-8978-2B2767C3B2FF","Lat":"34.94317623","Lon":"-85.28749537"},{"ParkName":"Chickasaw National Recreation Area","ParkID":"16809469-7649-4DFA-9C76-57F2B9946DDC","Lat":"34.46050507","Lon":"-97.00715669"},{"ParkName":"Chiricahua National Monument","ParkID":"E98D419A-A118-49D5-89AF-3C4F9BE7372D","Lat":"32.01214618","Lon":"-109.341607"},{"ParkName":"Christiansted National Historic Site","ParkID":"A6290572-1871-4285-90F5-7C313FE2583E","Lat":"17.73771903","Lon":"-64.72906227"},{"ParkName":"City Of Rocks National Reserve","ParkID":"FC72FEF5-362F-4C9B-B6A1-88FA559D84CE","Lat":"42.0699024","Lon":"-113.7124097"},{"ParkName":"Civil War Defenses of Washington","ParkID":"8A6C3A35-C48B-4125-82E1-939A1B3A535C","Lat":"38.9644","Lon":"-77.0292"},{"ParkName":"Clara Barton National Historic Site","ParkID":"80B93073-3A9D-4BD8-A8F5-5CB84CD35FE1","Lat":"38.96762882","Lon":"-77.14009689"},{"ParkName":"Colonial National Historical Park","ParkID":"1FC8F995-C4F2-4553-BDE4-BB43AAB12ED6","Lat":"37.22824435","Lon":"-76.61998123"},{"ParkName":"Colorado National Monument","ParkID":"EC5A2653-4470-46E7-8B57-30B8ADE46445","Lat":"39.05045016","Lon":"-108.6920709"},{"ParkName":"Coltsville National Historical Park","ParkID":"42E23CFA-4849-43D1-B9C7-77509C0AB85B","Lat":"42.4677505493","Lon":"-73.203666687"},{"ParkName":"Congaree National Park","ParkID":"EEBA7225-7FF5-4B62-B60C-6BBC66351A4E","Lat":"33.79187523","Lon":"-80.74867805"},{"ParkName":"Constitution Gardens","ParkID":"B2F2941A-1BC1-42ED-B02F-541EBC80AEE4","Lat":"38.8909354","Lon":"-77.04409306"},{"ParkName":"Coronado National Memorial","ParkID":"6ED827FD-EA71-443E-83EE-9367FD14F940","Lat":"31.34900397","Lon":"-110.2561574"},{"ParkName":"Cowpens National Battlefield","ParkID":"9F7919AF-7B0B-4FDB-98B7-9D0FB3B9E4F1","Lat":"35.13160654","Lon":"-81.80935433"},{"ParkName":"Crater Lake National Park","ParkID":"7DC1050A-0DDE-4EF9-B777-3C9349BCC4DE","Lat":"42.94065854","Lon":"-122.1338414"},{"ParkName":"Craters Of The Moon National Monument &amp; Preserve","ParkID":"1388A0C7-D12A-4642-885A-A9C723458BA3","Lat":"43.20345611","Lon":"-113.4791609"},{"ParkName":"Cumberland Gap National Historical Park","ParkID":"F341E5A4-959B-4D87-B886-23A884633D33","Lat":"36.62503076","Lon":"-83.6114083"},{"ParkName":"Cumberland Island National Seashore","ParkID":"EF680908-DE76-4336-BD51-F33BEB09B4D7","Lat":"30.85857484","Lon":"-81.45253575"},{"ParkName":"Curecanti National Recreation Area","ParkID":"80E30980-1B26-4AE7-A039-FA7D8D119070","Lat":"38.46584558","Lon":"-107.3303371"},{"ParkName":"Cuyahoga Valley National Park","ParkID":"F4D44F29-3F67-498F-B05B-0783473D2708","Lat":"41.26093905","Lon":"-81.57116722"},{"ParkName":"César E. Chávez National Monument","ParkID":"D1EAA1D1-E855-42FF-9D06-8E983413BDE5","Lat":"35.22729389","Lon":"-118.5615781"},{"ParkName":"Dayton Aviation Heritage National Historical Park","ParkID":"C62B89CF-F912-46F4-878C-8EEBD843CEC6","Lat":"39.78944467","Lon":"-84.10442045"},{"ParkName":"De Soto National Memorial","ParkID":"C40BEE20-AF31-4DB5-AC77-D53EC89D1D9F","Lat":"27.52272613","Lon":"-82.64335416"},{"ParkName":"Death Valley National Park","ParkID":"FFC9F9C4-D79D-4CA7-AB0F-7A2AD30061CD","Lat":"36.48753731","Lon":"-117.134395"},{"ParkName":"Delaware Water Gap National Recreation Area","ParkID":"ECCA243E-109D-4D73-8546-B0A2553DD9E5","Lat":"41.12793491","Lon":"-74.94751173"},{"ParkName":"Denali National Park &amp; Preserve","ParkID":"C0BF2A42-E353-4FAE-B4C4-AA0676B58100","Lat":"63.29777484","Lon":"-151.0526568"},{"ParkName":"Devils Postpile National Monument","ParkID":"2DC9444C-880F-4738-BA1F-6FB123935A02","Lat":"37.6152564","Lon":"-119.0873903"},{"ParkName":"Devils Tower National Monument","ParkID":"335368E4-B5CE-4370-8324-4A841AFA5025","Lat":"44.59064655","Lon":"-104.7156341"},{"ParkName":"Dinosaur National Monument","ParkID":"061D9754-B947-48FD-99BE-1FE1AAD1BB90","Lat":"40.50739742","Lon":"-108.9333714"},{"ParkName":"Dry Tortugas National Park","ParkID":"167A05D1-5793-49E0-89FE-0A1DDFA9A7F4","Lat":"24.628741","Lon":"-82.87319"},{"ParkName":"Dwight D. Eisenhower Memorial","ParkID":"658C035B-119B-4C6F-9720-67872AD6A8A5","Lat":"38.8869476647","Lon":"-77.018737554"},{"ParkName":"Ebey's Landing National Historical Reserve","ParkID":"98C8117C-EDE9-4A7C-9354-5AD0DEFDB848","Lat":"48.21403036","Lon":"-122.6877213"},{"ParkName":"Edgar Allan Poe National Historic Site","ParkID":"7D06F9D0-1D89-48B5-AFC6-E096C3288C1E","Lat":"39.96195482","Lon":"-75.1500062"},{"ParkName":"Effigy Mounds National Monument","ParkID":"0265E5A4-576A-4626-882A-05971DEE9B76","Lat":"43.08095081","Lon":"-91.19687517"},{"ParkName":"Eisenhower National Historic Site","ParkID":"29621EB6-DFBA-40DD-A880-FE29BE9EE2D7","Lat":"39.79577592","Lon":"-77.26508101"},{"ParkName":"El Camino Real de Tierra Adentro National Historic Trail","ParkID":"2EE542B6-3806-4E9C-ABBD-C4CC4C7E97C7","Lat":"33.7990672546","Lon":"-106.866386195"},{"ParkName":"El Camino Real de los Tejas National Historic Trail","ParkID":"111711AC-B056-4CCF-B08F-35EE0E313CF4","Lat":"30.0922964581","Lon":"-97.3397666725"},{"ParkName":"El Malpais National Monument","ParkID":"0826F21E-43A2-4675-8D2A-11F676293364","Lat":"34.88422799","Lon":"-107.9950948"},{"ParkName":"El Morro National Monument","ParkID":"F894BEB4-0058-4FB9-9E5B-68DB9A5BD198","Lat":"35.03895916","Lon":"-108.3463984"},{"ParkName":"Eleanor Roosevelt National Historic Site","ParkID":"04CB5DB1-522B-4C2C-BB3F-C36361E391E7","Lat":"41.76208482","Lon":"-73.89894026"},{"ParkName":"Ellis Island Part of Statue of Liberty National Monument","ParkID":"73A512A3-807A-457C-8A3B-5862C9C28BBD","Lat":"40.69946","Lon":"-74.0401"},{"ParkName":"Eugene O'Neill National Historic Site","ParkID":"353241CC-4C4A-4F9E-A928-EFDCE2C6E29A","Lat":"37.82604456","Lon":"-122.0271566"},{"ParkName":"Everglades National Park","ParkID":"5EA02193-276A-4037-B7DB-5765A56935FD","Lat":"25.37294225","Lon":"-80.88200301"},{"ParkName":"Federal Hall National Memorial","ParkID":"2337D255-2D32-4997-957A-D461EEA03AF8","Lat":"40.70731192","Lon":"-74.01025636"},{"ParkName":"Fire Island National Seashore","ParkID":"8A31246D-5AB9-4A0E-8FBA-A9780C468935","Lat":"40.69668638","Lon":"-73.00013462"},{"ParkName":"First Ladies National Historic Site","ParkID":"35CB040E-765C-47D0-A594-05943E64EF3E","Lat":"40.79689857","Lon":"-81.37579869"},{"ParkName":"First State National Historical Park","ParkID":"7861C177-A600-4B37-B217-E9E64DC04F34","Lat":"39.83076929","Lon":"-75.56353942"},{"ParkName":"Flight 93 National Memorial","ParkID":"CA3ABD4B-B2BB-4949-9705-60CADB175FC4","Lat":"40.06061476","Lon":"-78.89456905"},{"ParkName":"Florissant Fossil Beds National Monument","ParkID":"1F38885B-538E-499C-B5A6-30D76267AC7F","Lat":"38.91260586","Lon":"-105.2803396"},{"ParkName":"Ford's Theatre","ParkID":"C1D82E29-1291-415B-9834-5A0480D2732C","Lat":"38.89668819","Lon":"-77.02577944"},{"ParkName":"Fort Bowie National Historic Site","ParkID":"5AD68231-8681-43F6-89B1-08E5AA4C7FE6","Lat":"32.14925942","Lon":"-109.451132"},{"ParkName":"Fort Davis National Historic Site","ParkID":"DE70B987-01A4-4BA5-9662-030BE3329AB3","Lat":"30.59930381","Lon":"-103.8961904"},{"ParkName":"Fort Donelson National Battlefield","ParkID":"7DD7A9E8-E1E9-4759-A764-5FF81FC520ED","Lat":"36.49019078","Lon":"-87.92445695"},{"ParkName":"Fort Dupont Park","ParkID":"3659D57D-BF06-4351-8B14-5F447120A389","Lat":"38.87731289","Lon":"-76.94955824"},{"ParkName":"Fort Foote Park","ParkID":"649C339B-35AE-4A4D-96A5-B54E46BA8D71","Lat":"38.76901785","Lon":"-77.02812387"},{"ParkName":"Fort Frederica National Monument","ParkID":"4301F6E9-750B-489D-B8E4-4204165894A1","Lat":"31.2214699","Lon":"-81.39452014"},{"ParkName":"Fort Laramie National Historic Site","ParkID":"53C5C818-EB7C-4FEB-B94F-892588205D64","Lat":"42.20301694","Lon":"-104.5459112"},{"ParkName":"Fort Larned National Historic Site","ParkID":"6C6ABAB9-7F52-4172-8009-817612726CFF","Lat":"38.18047491","Lon":"-99.21836664"},{"ParkName":"Fort Matanzas National Monument","ParkID":"31E84ADD-24C1-400B-9D8B-4588D8DC521C","Lat":"29.7121489","Lon":"-81.23567535"},{"ParkName":"Fort McHenry National Monument and Historic Shrine","ParkID":"B0DE766C-E87F-48BE-A94F-C9D774AD52FD","Lat":"39.26395314","Lon":"-76.58044165"},{"ParkName":"Fort Monroe National Monument","ParkID":"BDE93DB8-0A71-4C18-9F10-489815E742CC","Lat":"37.01733343","Lon":"-76.30103195"},{"ParkName":"Fort Necessity National Battlefield","ParkID":"D2E64293-4B46-4F1A-8902-7D0FCAD268C0","Lat":"39.81306048","Lon":"-79.59033344"},{"ParkName":"Fort Point National Historic Site","ParkID":"7FF57085-3B53-498D-86B5-96F5F1493A06","Lat":"37.80837439","Lon":"-122.473747"},{"ParkName":"Fort Pulaski National Monument","ParkID":"3249A652-F901-40F2-A608-635B0F41574B","Lat":"32.0308274","Lon":"-80.93361681"},{"ParkName":"Fort Raleigh National Historic Site","ParkID":"C84BCBF8-FC75-48BB-8032-6FF56AB2DCED","Lat":"35.93278602","Lon":"-75.71496865"},{"ParkName":"Fort Scott National Historic Site","ParkID":"8CA5777A-FFDF-45AE-9705-C4DE268D1BCC","Lat":"37.84358849","Lon":"-94.70429174"},{"ParkName":"Fort Smith National Historic Site","ParkID":"54DC5EA0-2635-4154-BBD0-AF0F38D76933","Lat":"35.38834746","Lon":"-94.43129079"},{"ParkName":"Fort Stanwix National Monument","ParkID":"D57C8F0D-71E9-46D7-B00B-001BC7E39096","Lat":"43.21053441","Lon":"-75.45557626"},{"ParkName":"Fort Sumter and Fort Moultrie National Historical Park","ParkID":"372AF558-26C8-461F-B011-AF359276398D","Lat":"32.75654469","Lon":"-79.87068744"},{"ParkName":"Fort Union National Monument","ParkID":"FB1AE18D-522F-434B-9983-3D0194CE1995","Lat":"35.90700629","Lon":"-105.0145185"},{"ParkName":"Fort Union Trading Post National Historic Site","ParkID":"60B1534B-5C3A-402A-ABC6-700B756F69A2","Lat":"48.00075828","Lon":"-104.0375238"},{"ParkName":"Fort Vancouver National Historic Site","ParkID":"B13AB831-6806-4CBA-A93D-4E2FCC39F6F7","Lat":"45.62234841","Lon":"-122.6617043"},{"ParkName":"Fort Washington Park","ParkID":"E49B3D75-8676-4417-BFAD-8B3E23B1418B","Lat":"38.7117","Lon":"-77.0302"},{"ParkName":"Fossil Butte National Monument","ParkID":"57CCF213-6285-408F-AD58-CC2DB9D5B6C1","Lat":"41.85635223","Lon":"-110.7624754"},{"ParkName":"Franklin Delano Roosevelt Memorial","ParkID":"8F8CC788-D1BB-42BC-A41E-B442E2B001C8","Lat":"38.88341274","Lon":"-77.04311542"},{"ParkName":"Frederick Douglass National Historic Site","ParkID":"F6831504-A456-45C8-B87B-0FCE1D849A12","Lat":"38.86298458","Lon":"-76.98508147"},{"ParkName":"Frederick Law Olmsted National Historic Site","ParkID":"CDC0FE7F-C249-466C-88B2-B81FC5279B91","Lat":"42.32424266","Lon":"-71.13202567"},{"ParkName":"Fredericksburg &amp; Spotsylvania National Military Park","ParkID":"52430E36-3361-4BB8-BE6F-0F2834E50CB3","Lat":"38.29378","Lon":"-77.46734"},{"ParkName":"Freedom Riders National Monument","ParkID":"FFEB6894-949B-4C17-924D-646B63966718","Lat":"33.635269165","Lon":"-85.9064331055"},{"ParkName":"Friendship Hill National Historic Site","ParkID":"F6D0ABED-2C07-4194-8CB7-09476271EDB9","Lat":"39.77543423","Lon":"-79.92504169"},{"ParkName":"Gates Of The Arctic National Park &amp; Preserve","ParkID":"BC195D18-71C8-4A99-BF8E-10BFAB849679","Lat":"67.75961636","Lon":"-153.2917758"},{"ParkName":"Gateway Arch National Park","ParkID":"BD588493-EC77-4B97-B73E-3BA444864DC5","Lat":"38.6258069","Lon":"-90.1892508"},{"ParkName":"Gateway National Recreation Area","ParkID":"BBC5BE3F-E921-40B5-A850-F259D9FAF88C","Lat":"40.56536246","Lon":"-73.9171087"},{"ParkName":"Gauley River National Recreation Area","ParkID":"A1994071-1BCB-4C14-9C21-108348882067","Lat":"38.20614947","Lon":"-81.00420836"},{"ParkName":"General Grant National Memorial","ParkID":"99F1F4ED-5B14-4756-B0EB-FF251B1A12BD","Lat":"40.81332817","Lon":"-73.96331542"},{"ParkName":"George Rogers Clark National Historical Park","ParkID":"48C4BDA1-98A3-441A-87FF-BAAB3AA043AE","Lat":"38.67912659","Lon":"-87.53545212"},{"ParkName":"George Washington Birthplace National Monument","ParkID":"542D7CC3-B948-4891-9811-829661F30686","Lat":"38.19362603","Lon":"-76.92079458"},{"ParkName":"George Washington Carver National Monument","ParkID":"56A5A3B1-4F49-4517-86B8-AE2F272D0C42","Lat":"36.9871322","Lon":"-94.35522737"},{"ParkName":"George Washington Memorial Parkway","ParkID":"E6D5BB41-3251-469F-ABDA-7B43B966F0CF","Lat":"38.9628","Lon":"-77.1495"},{"ParkName":"Gettysburg National Military Park","ParkID":"8C330DA3-6194-4034-8948-C6B6772B82A0","Lat":"39.81557366","Lon":"-77.23246758"},{"ParkName":"Gila Cliff Dwellings National Monument","ParkID":"1BB1F955-A830-4E85-A80F-5E940A143CE5","Lat":"33.22715258","Lon":"-108.2706711"},{"ParkName":"Glacier Bay National Park &amp; Preserve","ParkID":"3682DBDE-6746-4979-86CC-2358C5B72661","Lat":"58.80086718","Lon":"-136.8407579"},{"ParkName":"Glacier National Park","ParkID":"2B5178C6-2446-488C-AC31-47E3CEBF7159","Lat":"48.68414678","Lon":"-113.8009306"},{"ParkName":"Glen Canyon National Recreation Area","ParkID":"F7EB51F0-240D-49BC-968C-792756A3B1A0","Lat":"36.9357464677","Lon":"-111.485594268"},{"ParkName":"Glen Echo Park","ParkID":"3FBC6D2D-C61B-4399-BC35-1B00C92C406A","Lat":"38.96912315","Lon":"-77.14012206"},{"ParkName":"Gloria Dei Church National Historic Site","ParkID":"4A2954A3-F00F-46E4-8FC7-BB2766350518","Lat":"39.93435005","Lon":"-75.14398924"},{"ParkName":"Golden Gate National Recreation Area","ParkID":"0E797FA8-6E31-418B-A68F-13CEE37A2AF5","Lat":"37.85982543","Lon":"-122.6007386"},{"ParkName":"Golden Spike National Historical Park","ParkID":"8F858FBE-8E28-491A-BCBD-67E23D535EEA","Lat":"41.61947508","Lon":"-112.5242653"},{"ParkName":"Governors Island National Monument","ParkID":"F7DA09B4-41C4-4372-9EBB-15AD1526B391","Lat":"40.69164233","Lon":"-74.01670765"},{"ParkName":"Grand Canyon National Park","ParkID":"B7FF43E5-3A95-4C8E-8DBE-72D8608D6588","Lat":"36.0001165336","Lon":"-112.121516363"},{"ParkName":"Grand Canyon-Parashant National Monument","ParkID":"F614E6C5-1283-431A-AF44-15FC849D65FE","Lat":"36.41535465","Lon":"-113.6682797"},{"ParkName":"Grand Portage National Monument","ParkID":"E463E13F-FCD4-41B3-AEF3-BA3199E04399","Lat":"47.99294217","Lon":"-89.75573031"},{"ParkName":"Grand Teton National Park","ParkID":"FF73E2AA-E274-44E1-A8F5-9DD998B0F579","Lat":"43.81853565","Lon":"-110.7054666"},{"ParkName":"Grant-Kohrs Ranch National Historic Site","ParkID":"72A30002-12FA-4738-BCA7-1FA8062214CB","Lat":"46.41358923","Lon":"-112.7467024"},{"ParkName":"Great Basin National Park","ParkID":"4C1A549B-080F-4522-9CA7-67BB5A0845CA","Lat":"38.94617378","Lon":"-114.2579782"},{"ParkName":"Great Egg Harbor River","ParkID":"5B1021C9-5F48-4747-B0E4-6F508FDF96AE","Lat":"39.3042","Lon":"-74.6497"},{"ParkName":"Great Falls Park","ParkID":"4DC6F018-E87E-46AE-8F05-BA30D3B82FF9","Lat":"38.98776107","Lon":"-77.25128326"},{"ParkName":"Great Sand Dunes National Park &amp; Preserve","ParkID":"461D40CC-4379-4C1B-ADB8-3563147F61A1","Lat":"37.79256812","Lon":"-105.5919572"},{"ParkName":"Great Smoky Mountains National Park","ParkID":"D9819727-18DF-4A84-BDDE-D4F2696DE340","Lat":"35.60116374","Lon":"-83.50818326"},{"ParkName":"Green Springs","ParkID":"67B6A06A-1B09-44DE-BCA4-C013EE30DDD0","Lat":"38.037099","Lon":"-78.189823"},{"ParkName":"Greenbelt Park","ParkID":"8CEE28AB-50AE-4AC6-ACEF-B209A5346743","Lat":"38.98328267","Lon":"-76.89722133"},{"ParkName":"Guadalupe Mountains National Park","ParkID":"6510001B-685D-4688-A963-4ECE7AB609DB","Lat":"31.92304462","Lon":"-104.885527"},{"ParkName":"Guilford Courthouse National Military Park","ParkID":"D1417003-3F9E-4FE0-9C6B-8ECE50855C7B","Lat":"36.13225478","Lon":"-79.8424561"},{"ParkName":"Gulf Islands National Seashore","ParkID":"ACA78E27-3C26-4C8B-8CCB-9F0B5BED247F","Lat":"30.3211","Lon":"-87.2304"},{"ParkName":"Hagerman Fossil Beds National Monument","ParkID":"BEE3E4AA-D61B-4197-A2A0-567D15734766","Lat":"42.79074114","Lon":"-114.9443074"},{"ParkName":"Haleakalā National Park","ParkID":"4930BAEB-A3BF-4825-9796-DCD0FD1C3BD5","Lat":"20.70693015","Lon":"-156.1591775"},{"ParkName":"Hamilton Grange National Memorial","ParkID":"4E169088-14AC-41DB-A6B2-BB3925B1CF0A","Lat":"40.81871605","Lon":"-73.94878487"},{"ParkName":"Hampton National Historic Site","ParkID":"5FD56750-4A13-4615-B987-793AC356B320","Lat":"39.4175296","Lon":"-76.58781182"},{"ParkName":"Harmony Hall","ParkID":"211E9758-FA5F-4BAA-AABF-D939B7C07A79","Lat":"38.74646351","Lon":"-77.00377069"},{"ParkName":"Harpers Ferry National Historical Park","ParkID":"2828F5DF-F4E9-48DE-9D4D-2EC39E0276B2","Lat":"39.31865949","Lon":"-77.74088546"},{"ParkName":"Harriet Tubman National Historical Park","ParkID":"067468EC-25DB-447C-91A8-068C167EEF32","Lat":"42.9128920287","Lon":"-76.5646715462"},{"ParkName":"Harriet Tubman Underground Railroad National Historical Park","ParkID":"380E7DFB-6F37-499F-8996-356EC5F0DDE5","Lat":"38.4548643511","Lon":"-76.1373451376"},{"ParkName":"Harry S Truman National Historic Site","ParkID":"76F393BA-D39F-43E9-B0A3-F746E2FEAD85","Lat":"38.92711967","Lon":"-94.5162488"},{"ParkName":"Hawaiʻi Volcanoes National Park","ParkID":"D9BF4288-9AC3-4526-9598-BE8920839ACC","Lat":"19.3355036","Lon":"-155.4700257"},{"ParkName":"Herbert Hoover National Historic Site","ParkID":"43AC146A-0903-4E4A-BD7D-7169655009C7","Lat":"41.66793558","Lon":"-91.35232139"},{"ParkName":"Historic Jamestowne Part of Colonial National Historical Park","ParkID":"9CFF594A-8DB1-4377-BE2A-10CC2B0C47E1","Lat":"37.2065","Lon":"-76.7538"},{"ParkName":"Home Of Franklin D Roosevelt National Historic Site","ParkID":"BBA0A580-E05B-42DD-A64F-7C6F958091C5","Lat":"41.76639758","Lon":"-73.92516857"},{"ParkName":"Homestead National Historical Park","ParkID":"3E1E316B-2F1A-4F08-8BD0-AE64761D68C2","Lat":"40.28802381","Lon":"-96.83387781"},{"ParkName":"Honouliuli National Historic Site","ParkID":"88F37F00-EAD0-44C4-88D1-F42D52BF661B","Lat":"21.38817536","Lon":"-158.0574991"},{"ParkName":"Hopewell Culture National Historical Park","ParkID":"BE344FC9-4366-493D-B881-4E5AD4973CF5","Lat":"39.31594374","Lon":"-83.08049456"},{"ParkName":"Hopewell Furnace National Historic Site","ParkID":"D709F8AB-E094-4C58-8B9E-2E4958AA2BF2","Lat":"40.20610637","Lon":"-75.76766355"},{"ParkName":"Horseshoe Bend National Military Park","ParkID":"7565F317-EA13-4E07-9059-D6831CA7E4A9","Lat":"32.97668879","Lon":"-85.73413589"},{"ParkName":"Hot Springs National Park","ParkID":"ED9C0322-68FB-4DE1-A884-61C623281C9D","Lat":"34.52414366","Lon":"-93.06332936"},{"ParkName":"Hovenweep National Monument","ParkID":"BA84404E-743C-4841-9F83-87CEDA164E5B","Lat":"37.39134092","Lon":"-109.0047977"},{"ParkName":"Hubbell Trading Post National Historic Site","ParkID":"E2A4E070-D68B-42D6-8353-4438ED2F43AB","Lat":"35.70727324","Lon":"-109.5599515"},{"ParkName":"Ice Age Floods National Geologic Trail","ParkID":"07D9E506-B86A-4762-801F-2D333F369D5D","Lat":"46.5669309008","Lon":"-118.992564971"},{"ParkName":"Ice Age National Scenic Trail","ParkID":"DED290D0-879A-4134-BBC3-54980D80959E","Lat":"43.9895697794","Lon":"-89.5612021706"},{"ParkName":"Independence National Historical Park","ParkID":"CF35CC35-12CE-473D-9E4C-703916105B78","Lat":"39.94746112","Lon":"-75.14794157"},{"ParkName":"Indiana Dunes National Park","ParkID":"473EFACE-EE15-4A4F-AA6C-666810A9E27D","Lat":"41.63765525","Lon":"-87.09647445"},{"ParkName":"Isle Royale National Park","ParkID":"0F6893CF-FC15-4AC5-8C95-E70FC9C21B1A","Lat":"48.01145819","Lon":"-88.82780657"},{"ParkName":"Iñupiat Heritage Center","ParkID":"622B7696-B7D8-41D8-A3C9-C82A60D0CD12","Lat":"71.29832445","Lon":"-156.7535863"},{"ParkName":"James A Garfield National Historic Site","ParkID":"DE848801-6FFA-4961-901A-CBE120F569F5","Lat":"41.66486549","Lon":"-81.35086557"},{"ParkName":"Jean Lafitte National Historical Park and Preserve","ParkID":"ED57A2B1-2560-471C-82A7-7EF6BC3486F8","Lat":"29.81739855","Lon":"-90.1402241"},{"ParkName":"Jewel Cave National Monument","ParkID":"A71EF659-5A33-4CCC-93CE-340F23A88E3E","Lat":"43.73102945","Lon":"-103.829994"},{"ParkName":"Jimmy Carter National Historical Park","ParkID":"F63CFF21-C861-422D-A725-B8F3ECFF6EAE","Lat":"32.03611","Lon":"-84.3924"},{"ParkName":"John Day Fossil Beds National Monument","ParkID":"B2577D2A-A33E-4DCF-B6F8-C299E1DFEC19","Lat":"44.62566508","Lon":"-119.8811491"},{"ParkName":"John Fitzgerald Kennedy National Historic Site","ParkID":"13E32BB8-D80B-45FA-ABF7-9C0CA5417ADC","Lat":"42.34693694","Lon":"-71.12323846"},{"ParkName":"John Muir National Historic Site","ParkID":"F339067B-A588-4BF3-9D90-1C1BA1249203","Lat":"37.9828422","Lon":"-122.1326097"},{"ParkName":"Johnstown Flood National Memorial","ParkID":"A8C04CA4-FEFF-4FDD-99C4-5BA801AA2DB5","Lat":"40.34584534","Lon":"-78.77448601"},{"ParkName":"Joshua Tree National Park","ParkID":"F5CD58FB-05DC-4074-99DA-F327A537F1BC","Lat":"33.91418525","Lon":"-115.8398125"},{"ParkName":"Juan Bautista de Anza National Historic Trail","ParkID":"062F89B7-8DB4-4ACD-88D1-573669E63091","Lat":"33.8743390994","Lon":"-117.224179857"},{"ParkName":"Kalaupapa National Historical Park","ParkID":"3C869976-DF2E-4D99-9918-366DFE637846","Lat":"21.1731108","Lon":"-156.9511609"},{"ParkName":"Kaloko-Honokōhau National Historical Park","ParkID":"C8B7FCAD-0176-4ABC-8774-90A264E646F1","Lat":"19.68083237","Lon":"-156.0306932"},{"ParkName":"Katahdin Woods and Waters National Monument","ParkID":"406F7D87-F34F-41C9-9CCE-9FD53ABBA9A7","Lat":"45.9567565918","Lon":"-68.7122879028"},{"ParkName":"Katmai National Park &amp; Preserve","ParkID":"B712CB0C-B3DD-48A6-AA4F-CCD72C87F48B","Lat":"58.62235668","Lon":"-155.0126574"},{"ParkName":"Kenai Fjords National Park","ParkID":"11E73438-0CCC-4441-A76A-1995F67F2D89","Lat":"59.81804414","Lon":"-150.106502"},{"ParkName":"Kenilworth Park &amp; Aquatic Gardens","ParkID":"A1901BAE-94DB-44E4-96D4-1E07422EDF6E","Lat":"38.9128","Lon":"-76.9434"},{"ParkName":"Kennesaw Mountain National Battlefield Park","ParkID":"AA1E3B48-8B98-4F47-A642-C266A92AB523","Lat":"33.95370717","Lon":"-84.59214186"},{"ParkName":"Keweenaw National Historical Park","ParkID":"E25D6277-11D8-425F-8498-718C98B13854","Lat":"47.1792308","Lon":"-88.52275344"},{"ParkName":"Kings Mountain National Military Park","ParkID":"C7C40543-5879-48FC-8E55-C26F3E0B4CCD","Lat":"35.13900723","Lon":"-81.38978712"},{"ParkName":"Klondike Gold Rush - Seattle Unit National Historical Park","ParkID":"0529BC85-CD42-4DA9-AC60-CAD7C40C3525","Lat":"47.5993663","Lon":"-122.3319664"},{"ParkName":"Klondike Gold Rush National Historical Park","ParkID":"5D4AA834-B601-44A8-B786-FF3306BA8A39","Lat":"59.61042373","Lon":"-135.2618535"},{"ParkName":"Knife River Indian Villages National Historic Site","ParkID":"0103833B-8114-4483-9754-11B5171BCB20","Lat":"47.3540219","Lon":"-101.3860533"},{"ParkName":"Kobuk Valley National Park","ParkID":"691831BF-F280-4E02-BF4A-FF476BC66B23","Lat":"67.35631336","Lon":"-159.2002293"},{"ParkName":"Korean War Veterans Memorial","ParkID":"0DEA542F-01B7-4631-8AAD-124161D7B7E6","Lat":"38.88784226","Lon":"-77.04773857"},{"ParkName":"LBJ Memorial Grove on the Potomac","ParkID":"D50B95B0-11C7-4F0A-8B3A-9BAC66E8F1A7","Lat":"38.87858036","Lon":"-77.05145832"},{"ParkName":"Lake Clark National Park &amp; Preserve","ParkID":"5F76F85B-23F4-4616-AA0B-A26E8DE76593","Lat":"60.57405857","Lon":"-153.55535"},{"ParkName":"Lake Mead National Recreation Area","ParkID":"7B43EA5B-298C-4BAB-B22D-860B852B40A5","Lat":"35.96622528","Lon":"-114.3469067"},{"ParkName":"Lake Meredith National Recreation Area","ParkID":"AC3B46AA-B4C2-4555-A82A-D4CF790DF81D","Lat":"35.61926203","Lon":"-101.6820066"},{"ParkName":"Lake Roosevelt National Recreation Area","ParkID":"B548FF88-8155-4E56-8E77-FB140D06E1EC","Lat":"48.17148735","Lon":"-118.3513713"},{"ParkName":"Lassen Volcanic National Park","ParkID":"9AA4A53C-0331-43CC-99F5-379BC929FFB2","Lat":"40.49354575","Lon":"-121.4075993"},{"ParkName":"Lava Beds National Monument","ParkID":"10AEFADA-AFA0-4998-A9E5-3F504F351AAB","Lat":"41.75915823","Lon":"-121.5172189"},{"ParkName":"Lewis &amp; Clark National Historic Trail","ParkID":"5D443C5F-19A0-4A06-9CE4-30534A3DD81A","Lat":"41.2646141052","Lon":"-95.9245147705"},{"ParkName":"Lewis and Clark National Historical Park","ParkID":"2666104A-6685-4F93-9412-8091007BEF6C","Lat":"46.21178735","Lon":"-123.9638583"},{"ParkName":"Lincoln Boyhood National Memorial","ParkID":"E9A0608F-46D6-4072-939F-C81E27AAB236","Lat":"38.11817004","Lon":"-86.99656861"},{"ParkName":"Lincoln Home National Historic Site","ParkID":"FF52F034-53E3-4F36-AA31-4BEBCC5F007A","Lat":"39.79715642","Lon":"-89.64513397"},{"ParkName":"Lincoln Memorial","ParkID":"1EAEF5FA-8CD4-40D7-8B09-07F20E3E5AA5","Lat":"38.88927229","Lon":"-77.05017778"},{"ParkName":"Little Bighorn Battlefield National Monument","ParkID":"415AA3E1-CE8A-4A24-BD69-451C87107AA4","Lat":"45.55633048","Lon":"-107.4183614"},{"ParkName":"Little River Canyon National Preserve","ParkID":"C03CF86E-BFB5-470E-AFF3-C1798A61FFE5","Lat":"34.41461863","Lon":"-85.61734327"},{"ParkName":"Little Rock Central High School National Historic Site","ParkID":"5C51E54A-BCDA-4186-96C3-1B896C3CDFCB","Lat":"34.7369465","Lon":"-92.29987899"},{"ParkName":"Longfellow House Washington's Headquarters National Historic Site","ParkID":"CE9470A1-A8D7-49DE-A555-1A32FBBAB0FF","Lat":"42.37698854","Lon":"-71.12636956"},{"ParkName":"Lowell National Historical Park","ParkID":"FA6450A4-D2F1-4B35-9817-EA01918597A6","Lat":"42.6455371","Lon":"-71.31588673"},{"ParkName":"Lower Delaware National Wild and Scenic River","ParkID":"64FF65B7-0847-4495-9464-667CAFBF4D16","Lat":"40.4000389","Lon":"-74.983737"},{"ParkName":"Lower East Side Tenement Museum National Historic Site","ParkID":"3725FD28-4693-481E-888C-855484E73800","Lat":"40.7187683","Lon":"-73.99001245"},{"ParkName":"Lyndon B Johnson National Historical Park","ParkID":"ECDFABE2-6448-46EA-886E-FE79ACBBF16E","Lat":"30.2519655","Lon":"-98.60692433"},{"ParkName":"Maggie L Walker National Historic Site","ParkID":"70090004-4DA3-4E20-8F70-9DE064C2AA69","Lat":"37.54781499","Lon":"-77.43746979"},{"ParkName":"Maine Acadian Culture","ParkID":"A609887A-BB48-47AA-A6F6-4C7F77346FC6","Lat":"47.25102114","Lon":"-68.59447532"},{"ParkName":"Mammoth Cave National Park","ParkID":"6A1737A1-6848-4087-AAF7-68A427247357","Lat":"37.19760458","Lon":"-86.13090198"},{"ParkName":"Manassas National Battlefield Park","ParkID":"75E4B06E-24C5-4F04-AAB3-F41CF0F55B7A","Lat":"38.81710063","Lon":"-77.5353468"},{"ParkName":"Manhattan Project National Historical Park","ParkID":"E777590D-C086-4A88-B5A2-AAE47DBD6A6F","Lat":"35.88096","Lon":"-106.30214"},{"ParkName":"Manzanar National Historic Site","ParkID":"249AF67F-BB6C-4D0A-B632-07BEE855D24B","Lat":"36.72559195","Lon":"-118.1547177"},{"ParkName":"Marsh - Billings - Rockefeller National Historical Park","ParkID":"AB289D4C-AC48-4C83-8643-45E1FCAAAEB1","Lat":"43.63348732","Lon":"-72.53424638"},{"ParkName":"Martin Luther King, Jr. Memorial","ParkID":"855C9CDC-89B3-4143-9496-D9E6AE292CA1","Lat":"38.8862276865","Lon":"-77.0442195534"},{"ParkName":"Martin Luther King, Jr. National Historical Park","ParkID":"59636FCE-DE81-4D98-890C-585BD48F9AD0","Lat":"33.75618241","Lon":"-84.37256768"},{"ParkName":"Martin Van Buren National Historic Site","ParkID":"C1713EAF-0437-4CE1-8CFB-04147E1318F3","Lat":"42.36819596","Lon":"-73.70834257"},{"ParkName":"Mary McLeod Bethune Council House National Historic Site","ParkID":"1D530576-5363-4264-9A26-1C0809DB0B6A","Lat":"38.90819107","Lon":"-77.03096742"},{"ParkName":"Medgar and Myrlie Evers Home National Monument","ParkID":"01DE3F7C-354D-4468-AC36-2CF5274AB68E","Lat":"32.34096274","Lon":"-90.21264553"},{"ParkName":"Mesa Verde National Park","ParkID":"BE3A981E-BB55-474D-8A0E-D711408682DC","Lat":"37.23908345","Lon":"-108.4624032"},{"ParkName":"Mill Springs Battlefield National Monument","ParkID":"0260D050-761A-4446-AB05-641986F9FDFB","Lat":"37.0688158602","Lon":"-84.7375361304"},{"ParkName":"Minidoka National Historic Site","ParkID":"FE52067B-EBB9-4FD2-B613-FE778985BAD9","Lat":"42.80586068","Lon":"-114.4449868"},{"ParkName":"Minute Man National Historical Park","ParkID":"3AB31FA9-E174-4A03-952D-397944D3A3C8","Lat":"42.4562778","Lon":"-71.30738884"},{"ParkName":"Minuteman Missile National Historic Site","ParkID":"5DE19B04-85AD-4C3A-93BF-A0D484B1AD91","Lat":"43.89558013","Lon":"-102.0272131"},{"ParkName":"Mississippi National River &amp; Recreation Area","ParkID":"913100E9-987E-4659-8124-DFCEE3158FCB","Lat":"44.942487","Lon":"-93.098712"},{"ParkName":"Missouri National Recreational River","ParkID":"D43C7439-5C0B-4F4F-9D5B-65080F13AD28","Lat":"42.7882189","Lon":"-97.59077822"},{"ParkName":"Mojave National Preserve","ParkID":"D509DC08-53AD-4661-A2EA-FC69BE456E50","Lat":"35.12485941","Lon":"-115.5168258"},{"ParkName":"Monocacy National Battlefield","ParkID":"8F17B3D6-BFA2-49F2-B553-C10B2B3A3EED","Lat":"39.36084236","Lon":"-77.39637677"},{"ParkName":"Montezuma Castle National Monument","ParkID":"D87E3D6F-8007-46F0-971A-B3BC191CC888","Lat":"34.62237771","Lon":"-111.8147857"},{"ParkName":"Moores Creek National Battlefield","ParkID":"617A3B73-D7CD-449D-8E27-41DE3BF149A6","Lat":"34.45820776","Lon":"-78.11031134"},{"ParkName":"Mormon Pioneer National Historic Trail","ParkID":"AD731EF0-685F-4397-88C1-A9BB21EBF034","Lat":"41.2650321741","Lon":"-101.84083756"},{"ParkName":"Morristown National Historical Park","ParkID":"D68D9424-CD32-434F-88BF-3069ADFB2744","Lat":"40.7650755","Lon":"-74.53455122"},{"ParkName":"Mount Rainier National Park","ParkID":"07229CB8-8533-4669-B614-2B884779DD93","Lat":"46.86075416","Lon":"-121.7043885"},{"ParkName":"Mount Rushmore National Memorial","ParkID":"5590468F-2446-4B46-A8C1-42505177C298","Lat":"43.88037021","Lon":"-103.4525186"},{"ParkName":"Muir Woods National Monument","ParkID":"126A6227-E39F-44F4-A279-B1EA257CBCDA","Lat":"37.89658027","Lon":"-122.5808047"},{"ParkName":"Natchez National Historical Park","ParkID":"259CE799-32C4-4CA9-BBDF-2F305018289C","Lat":"31.54697621","Lon":"-91.39040665"},{"ParkName":"Natchez Trace National Scenic Trail","ParkID":"3ACC9199-1234-4E50-B80E-65DB783B4BB7","Lat":"34.330290333","Lon":"-88.7100104094"},{"ParkName":"Natchez Trace Parkway","ParkID":"E8A0F0B6-983F-4B9A-9A67-BFF6F9E4204A","Lat":"33.78002293","Lon":"-89.03092439"},{"ParkName":"National Capital Parks-East","ParkID":"BA3C1A1D-AA6A-49EB-9237-0222CEEE2670","Lat":"38.8659","Lon":"-76.994"},{"ParkName":"National Mall and Memorial Parks","ParkID":"1E521374-B73C-41CD-B524-89E4AC6495F5","Lat":"38.8899","Lon":"-77.026"},{"ParkName":"National Park of American Samoa","ParkID":"6E71B72E-4F2F-495D-9225-A6634E6C2EB1","Lat":"-14.22865935","Lon":"-169.8503777"},{"ParkName":"National Parks of New York Harbor","ParkID":"186BF51D-FA34-4DD7-A967-233CB32547B8","Lat":"40.6632","Lon":"-74.0451"},{"ParkName":"Natural Bridges National Monument","ParkID":"5A4DD23B-8B4F-4212-957E-C59FE4165457","Lat":"37.6045329","Lon":"-110.0022436"},{"ParkName":"Navajo National Monument","ParkID":"C4F477D4-D34A-486B-BC6C-94FB2FAA8D67","Lat":"36.71755643","Lon":"-110.5504015"},{"ParkName":"New Bedford Whaling National Historical Park","ParkID":"848DFACA-B486-4BC4-AD71-C834F7713793","Lat":"41.63540552","Lon":"-70.92322321"},{"ParkName":"New England National Scenic Trail","ParkID":"CF83E09C-3E55-4B5A-9D8B-E833CF6FEB5A","Lat":"42.2915819137","Lon":"-72.5242767334"},{"ParkName":"New Jersey Pinelands National Reserve","ParkID":"D0F897A0-9545-4901-A1B8-7128E11A51FA","Lat":"39.9384","Lon":"-74.625"},{"ParkName":"New Orleans Jazz National Historical Park","ParkID":"CB014DE3-3483-4E36-BC35-3CC7E9F60529","Lat":"29.96303129","Lon":"-90.06749669"},{"ParkName":"New Philadelphia National Historic Site","ParkID":"62389727-B407-49A8-8EE9-FE6A6491B395","Lat":"39.69803","Lon":"-90.96131"},{"ParkName":"New River Gorge National Park &amp; Preserve","ParkID":"28F155F2-5116-4E4F-9E21-E8CBCFA5FF49","Lat":"37.86878554","Lon":"-80.99956002"},{"ParkName":"Nez Perce National Historical Park","ParkID":"05F2A0A7-317D-4C4F-95D6-F046BE96310C","Lat":"46.07019093","Lon":"-115.8761258"},{"ParkName":"Nicodemus National Historic Site","ParkID":"C8E59368-4CCA-4513-B2C5-D055BC0DA491","Lat":"39.39167606","Lon":"-99.61680329"},{"ParkName":"Ninety Six National Historic Site","ParkID":"1291920D-2428-4FEA-9670-7EBC45284A59","Lat":"34.14273587","Lon":"-82.01636079"},{"ParkName":"Niobrara National Scenic River","ParkID":"406594CB-1532-45CD-82EA-0C03FD2F0422","Lat":"42.79413083","Lon":"-99.91870646"},{"ParkName":"Noatak National Preserve","ParkID":"C9AA17CC-3152-464A-A9E2-494368086045","Lat":"68.01027053","Lon":"-159.831694"},{"ParkName":"North Cascades National Park","ParkID":"80EB184D-4B6D-4AD2-B6E2-CAAD6312B27D","Lat":"48.71171756","Lon":"-121.2069423"},{"ParkName":"North Country National Scenic Trail","ParkID":"4BE453C2-6527-484F-90D6-98057901EBDF","Lat":"46.334400743","Lon":"-90.8165630499"},{"ParkName":"Obed Wild &amp; Scenic River","ParkID":"EE2565D2-D745-4EF7-8814-21DF448427AD","Lat":"36.1056026037","Lon":"-84.5979170501"},{"ParkName":"Ocmulgee Mounds National Historical Park","ParkID":"81AFEB37-7119-4BF1-B65B-806BAB973FFD","Lat":"32.83816576","Lon":"-83.60224853"},{"ParkName":"Oklahoma City National Memorial","ParkID":"5837B4BA-86B4-4162-803C-E9DF325D5FC6","Lat":"35.473","Lon":"-97.5171"},{"ParkName":"Old Spanish National Historic Trail","ParkID":"8B07C05F-9C4A-4799-8428-DFA2BBB733AC","Lat":"37.0791782514","Lon":"-112.114693431"},{"ParkName":"Olympic National Park","ParkID":"81CFE898-AD06-4C0D-8A9B-C8D356273F0D","Lat":"47.80392754","Lon":"-123.6663848"},{"ParkName":"Oregon Caves National Monument &amp; Preserve","ParkID":"480702B9-E8B5-45A1-ACB4-7B044C13F7A2","Lat":"42.10319143","Lon":"-123.4018586"},{"ParkName":"Oregon National Historic Trail","ParkID":"4E072F12-3E85-4219-B456-A8F04C688879","Lat":"41.9876977831","Lon":"-109.634200841"},{"ParkName":"Organ Pipe Cactus National Monument","ParkID":"8A4FA0D4-A3BE-4AE2-8303-1936D9BA1E29","Lat":"32.03585543","Lon":"-112.8573314"},{"ParkName":"Overmountain Victory National Historic Trail","ParkID":"BAB8E761-8BB9-4DFF-9D38-5D4BA9AB2BD4","Lat":"35.14044","Lon":"-81.377"},{"ParkName":"Oxon Cove Park &amp; Oxon Hill Farm","ParkID":"5536A389-5457-4E3F-84E2-D67861BB34D9","Lat":"38.80578214","Lon":"-77.01131457"},{"ParkName":"Ozark National Scenic Riverways","ParkID":"CEC2A157-CDDC-4F11-BBE5-0AA2CEA35ADB","Lat":"37.13968894","Lon":"-91.25709817"},{"ParkName":"Padre Island National Seashore","ParkID":"7F7E12D2-E295-41D2-8446-BBF5EEF2F8F2","Lat":"27.05381186","Lon":"-97.35901135"},{"ParkName":"Palo Alto Battlefield National Historical Park","ParkID":"3E8C5A4D-6302-4E50-9FCC-A9EC7BFBF1D6","Lat":"26.02387351","Lon":"-97.46296072"},{"ParkName":"Paterson Great Falls National Historical Park","ParkID":"9604169F-6A23-4E70-937B-3BE7315590F2","Lat":"40.91584645","Lon":"-74.18021494"},{"ParkName":"Pea Ridge National Military Park","ParkID":"58BCDB2B-5A91-4892-8470-76D802313884","Lat":"36.45438033","Lon":"-94.03468357"},{"ParkName":"Pearl Harbor National Memorial","ParkID":"0B61230F-375C-4392-BDF0-BB3FC43D2CFE","Lat":"21.3670699388","Lon":"-157.938578898"},{"ParkName":"Pecos National Historical Park","ParkID":"8CBA3879-59AB-4EFE-8523-1DC6F77FB212","Lat":"35.54192238","Lon":"-105.6814684"},{"ParkName":"Pennsylvania Avenue","ParkID":"6282ABFA-00EF-413D-BE91-48D993A356F4","Lat":"38.89426856","Lon":"-77.02506554"},{"ParkName":"Perry's Victory &amp; International Peace Memorial","ParkID":"29329926-4215-4E10-83B8-5CF162A0E3F1","Lat":"41.65449782","Lon":"-82.8115794"},{"ParkName":"Petersburg National Battlefield","ParkID":"16B99840-35CB-4D14-BB83-136C371EFD2E","Lat":"37.19109957","Lon":"-77.47594865"},{"ParkName":"Petrified Forest National Park","ParkID":"1ABD0EFF-AC09-4EA1-8CC1-2351A3E160D0","Lat":"34.98387664","Lon":"-109.7877678"},{"ParkName":"Petroglyph National Monument","ParkID":"47CBA521-0A8A-4728-8BDA-85D269455A7A","Lat":"35.13915998","Lon":"-106.7491456"},{"ParkName":"Pictured Rocks National Lakeshore","ParkID":"8D803E2F-FB28-4DC3-9EDC-7FDAE185C092","Lat":"46.56435642","Lon":"-86.31628733"},{"ParkName":"Pinnacles National Park","ParkID":"9B266961-3364-43D2-9A08-82BB5EF5643F","Lat":"36.49029208","Lon":"-121.1813607"},{"ParkName":"Pipe Spring National Monument","ParkID":"97145E4E-3909-4669-8102-9559F3C405D1","Lat":"36.86282666","Lon":"-112.7398567"},{"ParkName":"Pipestone National Monument","ParkID":"932C699A-5680-4EA3-8C62-69A6A7D286C5","Lat":"44.01351958","Lon":"-96.32475523"},{"ParkName":"Piscataway Park","ParkID":"0477F67A-A350-449F-B001-848F867F2CA2","Lat":"38.6929","Lon":"-77.067"},{"ParkName":"Point Reyes National Seashore","ParkID":"B87424A7-92C3-49BA-BF16-A2EB16882376","Lat":"38.05511241","Lon":"-122.8797804"},{"ParkName":"Pony Express National Historic Trail","ParkID":"A0125F49-080E-4292-BD91-C1FA1657F547","Lat":"42.2365761128","Lon":"-109.266148417"},{"ParkName":"Port Chicago Naval Magazine National Memorial","ParkID":"F26E7620-3284-4F39-AB1B-98100B4AC6A7","Lat":"38.05685472","Lon":"-122.0301603"},{"ParkName":"Potomac Heritage National Scenic Trail","ParkID":"B7429C72-D8CA-46D9-8E89-E659259D8EEF","Lat":"39.15060133","Lon":"-77.52301085"},{"ParkName":"Poverty Point National Monument","ParkID":"DC9185D6-CCA9-4F40-AE53-5D77DE35E202","Lat":"32.6424361","Lon":"-91.40829834"},{"ParkName":"President William Jefferson Clinton Birthplace Home National Historic Site","ParkID":"E7C945ED-4224-4539-B2AE-97A5B229FA74","Lat":"33.66758356","Lon":"-93.59641868"},{"ParkName":"Presidio of San Francisco","ParkID":"75DD7A23-4BCF-4D11-A407-E282C2417DA4","Lat":"37.797","Lon":"-122.4671"},{"ParkName":"Prince William Forest Park","ParkID":"28ECD546-FD68-4640-8A31-773F7F7A5211","Lat":"38.58589108","Lon":"-77.38910997"},{"ParkName":"Pullman National Historical Park","ParkID":"36223C80-D2F3-45E3-9C44-BEA58A072985","Lat":"41.69429163","Lon":"-87.60873824"},{"ParkName":"Puʻuhonua o Hōnaunau National Historical Park","ParkID":"632CA28B-F67C-4BDB-A209-42A8332EE6D0","Lat":"19.41268627","Lon":"-155.9008789"},{"ParkName":"Puʻukoholā Heiau National Historic Site","ParkID":"9C680E81-C4DC-46DD-BF33-8189828FF887","Lat":"20.02772186","Lon":"-155.8211629"},{"ParkName":"Rainbow Bridge National Monument","ParkID":"CF02A7E7-147F-4F1C-966B-FE3F2AE28DDC","Lat":"36.9943264317","Lon":"-111.491484759"},{"ParkName":"Reconstruction Era National Historical Park","ParkID":"31B7A1C7-104D-4D35-BC85-FEFAC3FECEB0","Lat":"32.3868598938","Lon":"-80.6511077881"},{"ParkName":"Redwood National and State Parks","ParkID":"041B325C-A34F-4027-8E41-1DF3F9A1D799","Lat":"41.37237268","Lon":"-124.0318129"},{"ParkName":"Richmond National Battlefield Park","ParkID":"3D026091-7EFB-405D-A8F2-D9109DE9740A","Lat":"37.48774472","Lon":"-77.29107785"},{"ParkName":"Rio Grande Wild &amp; Scenic River","ParkID":"E1A636E5-E7AC-4B71-93DE-F1408F65C458","Lat":"29.52743158","Lon":"-102.5979169"},{"ParkName":"River Raisin National Battlefield Park","ParkID":"0AEC82D5-0D49-492A-9936-DBE44AF69F09","Lat":"41.91291085","Lon":"-83.37620464"},{"ParkName":"Rock Creek Park","ParkID":"D06293DF-25C4-4065-B0C7-BA5A225D3BF3","Lat":"38.95125063","Lon":"-77.05002838"},{"ParkName":"Rocky Mountain National Park","ParkID":"67A56B17-F533-4A56-B2DA-26091C6AD295","Lat":"40.3556924","Lon":"-105.6972879"},{"ParkName":"Roger Williams National Memorial","ParkID":"0419867F-20D9-49CF-BC42-88F5A70AD32D","Lat":"41.8298955","Lon":"-71.41056665"},{"ParkName":"Roosevelt Campobello International Park","ParkID":"05106DE8-D6F2-4088-9834-79462FBDDA21","Lat":"44.8736","Lon":"-66.9621"},{"ParkName":"Rosie the Riveter WWII Home Front National Historical Park","ParkID":"69F87C0F-AABE-4C34-97D3-F6DF33ACD772","Lat":"37.90999027","Lon":"-122.360156"},{"ParkName":"Russell Cave National Monument","ParkID":"FDD929A5-1D56-41DD-8A04-5FF77023340C","Lat":"34.97402063","Lon":"-85.81560314"},{"ParkName":"Sagamore Hill National Historic Site","ParkID":"BA5A0D58-E05F-44AE-94F1-10A88A4AF143","Lat":"40.88579128","Lon":"-73.49686438"},{"ParkName":"Saguaro National Park","ParkID":"A6F169CF-B830-499C-A5EB-A35138C77589","Lat":"32.20909636","Lon":"-110.7574974"},{"ParkName":"Saint Croix Island International Historic Site","ParkID":"57B2D95A-6D3E-49D6-BF73-623D6BD33D06","Lat":"45.12858838","Lon":"-67.13363651"},{"ParkName":"Saint Croix National Scenic Riverway","ParkID":"5CB26B91-B888-46E0-95E1-0683A63C45B0","Lat":"45.70019235","Lon":"-92.36126685"},{"ParkName":"Saint Paul's Church National Historic Site","ParkID":"7E946FDE-C454-4361-98A5-F60158B42770","Lat":"40.89283511","Lon":"-73.82577276"},{"ParkName":"Saint-Gaudens National Historical Park","ParkID":"0FC25325-87AA-4325-A6B7-C404D94B16DB","Lat":"43.4997238","Lon":"-72.37333969"},{"ParkName":"Salem Maritime National Historic Site","ParkID":"3C5998C3-F130-4E4C-8BA4-C1B25E728CE0","Lat":"42.52024529","Lon":"-70.88640867"},{"ParkName":"Salinas Pueblo Missions National Monument","ParkID":"4E7F8D4B-68EC-4A1B-BB71-0A295EB08557","Lat":"34.35423203","Lon":"-106.2050309"},{"ParkName":"Salt River Bay National Historical Park and Ecological Preserve","ParkID":"E84CCC52-A22F-42D6-86F1-198D818C25DD","Lat":"17.77908602","Lon":"-64.75519348"},{"ParkName":"San Antonio Missions National Historical Park","ParkID":"CCE1AD17-9B13-4D74-9CAC-0278D5477316","Lat":"29.31262089","Lon":"-98.4289522"},{"ParkName":"San Francisco Maritime National Historical Park","ParkID":"C75450D2-9223-4D5F-9BA4-28DBB92CD507","Lat":"37.81005871","Lon":"-122.4244415"},{"ParkName":"San Juan Island National Historical Park","ParkID":"63A8DCC0-0A62-4164-BF0B-51F6369B9E8B","Lat":"48.51241933","Lon":"-123.0610277"},{"ParkName":"San Juan National Historic Site","ParkID":"2E4D4918-95DF-4D99-9DEC-C6ADEB330281","Lat":"18.46873857","Lon":"-66.11848623"},{"ParkName":"Sand Creek Massacre National Historic Site","ParkID":"13E255FA-F68C-491C-828C-59E5B4FA2600","Lat":"38.56414189","Lon":"-102.5169542"},{"ParkName":"Santa Fe National Historic Trail","ParkID":"2B14155F-0E31-43F3-8B87-8B1DA6FA0BF7","Lat":"37.7276522226","Lon":"-99.921969227"},{"ParkName":"Santa Monica Mountains National Recreation Area","ParkID":"6E020F5D-3F97-4A43-88E6-C68254B55F2C","Lat":"34.09777606","Lon":"-118.7708619"},{"ParkName":"Saratoga National Historical Park","ParkID":"3D0F91B3-E847-4F75-9028-D26D269438F5","Lat":"42.99522612","Lon":"-73.63386108"},{"ParkName":"Saugus Iron Works National Historic Site","ParkID":"A83EFD38-9FCF-4996-A957-FE416A8C6B6D","Lat":"42.46830664","Lon":"-71.0076953"},{"ParkName":"Scotts Bluff National Monument","ParkID":"48ED0744-7B8A-4FFD-BEFC-C4AC22A7D649","Lat":"41.83464193","Lon":"-103.7071351"},{"ParkName":"Selma To Montgomery National Historic Trail","ParkID":"F5676388-94E5-45D2-8A51-344C825F5C12","Lat":"32.27082092","Lon":"-86.72823702"},{"ParkName":"Sequoia &amp; Kings Canyon National Parks","ParkID":"7E5A693C-2F63-44FD-B791-31FC8B8B6285","Lat":"36.71277299","Lon":"-118.587429"},{"ParkName":"Shenandoah National Park","ParkID":"E991C8BC-C203-4A09-AFD5-87380CF5C387","Lat":"38.49236644","Lon":"-78.46907715"},{"ParkName":"Shiloh National Military Park","ParkID":"B6E3A992-3217-4BC0-AC64-A699B45971CA","Lat":"35.13850907","Lon":"-88.3421072"},{"ParkName":"Sitka National Historical Park","ParkID":"6258CAD9-1932-4A40-8FA1-891C51978345","Lat":"57.04718173","Lon":"-135.3156876"},{"ParkName":"Sleeping Bear Dunes National Lakeshore","ParkID":"739AFEBE-BF00-4A3E-A369-85E74F6E6739","Lat":"44.92844962","Lon":"-86.02706591"},{"ParkName":"Springfield Armory National Historic Site","ParkID":"E01A7425-C74B-4E71-853D-681AD2FB948A","Lat":"42.1086368","Lon":"-72.57967415"},{"ParkName":"Star-Spangled Banner National Historic Trail","ParkID":"F22ED7C4-DDB8-43F8-AAF2-D474864352DA","Lat":"39.2872505188","Lon":"-76.6034317017"},{"ParkName":"Statue Of Liberty National Monument","ParkID":"6E3608BE-63AA-4379-A543-97D2FCBF12F1","Lat":"40.6898","Lon":"-74.0451"},{"ParkName":"Ste. Geneviève National Historical Park","ParkID":"EDD278F5-E9A8-4A40-BA41-9809ED8E025D","Lat":"37.9792171421","Lon":"-90.0432157516"},{"ParkName":"Steamtown National Historic Site","ParkID":"3BF9BCEE-F6AE-4DEC-8F80-9CD23C0767BE","Lat":"41.40757521","Lon":"-75.67037255"},{"ParkName":"Stones River National Battlefield","ParkID":"89157226-8474-4BAE-B471-F1730993A468","Lat":"35.87608652","Lon":"-86.43078399"},{"ParkName":"Stonewall National Monument","ParkID":"E65E7D88-D280-4B41-B700-BF1DC219BA38","Lat":"40.7337799072","Lon":"-74.0006866455"},{"ParkName":"Sunset Crater Volcano National Monument","ParkID":"52911672-4464-4569-984C-DC6DE1EE208F","Lat":"35.37114323","Lon":"-111.510376"},{"ParkName":"Tallgrass Prairie National Preserve","ParkID":"76F87FF4-4BAD-453E-8013-2DA8924A5D94","Lat":"38.44023613","Lon":"-96.5670822"},{"ParkName":"Thaddeus Kosciuszko National Memorial","ParkID":"2CA10B86-DCA3-456F-8C9A-A3A6C9288573","Lat":"39.94345312","Lon":"-75.14732045"},{"ParkName":"The White House and President's Park","ParkID":"C59FE971-54EE-447C-9DCE-CB781949B0B8","Lat":"38.89541886","Lon":"-77.03654147"},{"ParkName":"Theodore Roosevelt Birthplace National Historic Site","ParkID":"B32A4A36-E7CC-4A93-97DB-3F48565D2DA4","Lat":"40.7386469","Lon":"-73.98903703"},{"ParkName":"Theodore Roosevelt Inaugural National Historic Site","ParkID":"B4AEC074-8652-4B0A-8963-4CD60ECA2349","Lat":"42.90146781","Lon":"-78.87248411"},{"ParkName":"Theodore Roosevelt Island","ParkID":"42D7081F-2B9B-449C-9BF2-785850AE4865","Lat":"38.89584162","Lon":"-77.06241918"},{"ParkName":"Theodore Roosevelt National Park","ParkID":"B5FE5682-7981-47DD-AC96-13F4B33A466E","Lat":"47.17777274","Lon":"-103.4300083"},{"ParkName":"Thomas Cole National Historic Site","ParkID":"FE5E320D-BFCC-41EE-8113-BFEA9D6CA8CD","Lat":"42.22570607","Lon":"-73.86154864"},{"ParkName":"Thomas Edison National Historical Park","ParkID":"BFE248C8-40CD-4DC8-AC07-AE61A0D81FF3","Lat":"40.78549896","Lon":"-74.23821139"},{"ParkName":"Thomas Jefferson Memorial","ParkID":"2D0C31DF-BE78-42A8-812E-1A44602B3D40","Lat":"38.88101431","Lon":"-77.03632572"},{"ParkName":"Thomas Stone National Historic Site","ParkID":"DD9075B8-4AC2-4FA4-83F4-A08DFD705C25","Lat":"38.52934443","Lon":"-77.037813"},{"ParkName":"Timpanogos Cave National Monument","ParkID":"26FBF456-94A2-413C-87D9-DDBCD96815FA","Lat":"40.44039719","Lon":"-111.7093944"},{"ParkName":"Timucuan Ecological &amp; Historic Preserve","ParkID":"A1C5A868-68A9-4403-B762-531EBA300E3C","Lat":"30.47251894","Lon":"-81.49950104"},{"ParkName":"Tonto National Monument","ParkID":"69C5BC24-3065-401D-86C2-3FAC411E1327","Lat":"33.64842945","Lon":"-111.1135627"},{"ParkName":"Touro Synagogue National Historic Site","ParkID":"5216C131-B847-4A97-ACF1-4864714007FF","Lat":"41.4893","Lon":"-71.3121"},{"ParkName":"Trail Of Tears National Historic Trail","ParkID":"07A92FEB-682E-4895-8070-3323BC6F9EF7","Lat":"36.0530021046","Lon":"-89.6761041963"},{"ParkName":"Tule Lake National Monument","ParkID":"C315119F-1597-4C44-A8FA-60D707730FF0","Lat":"41.88727902","Lon":"-121.3744818"},{"ParkName":"Tule Springs Fossil Beds National Monument","ParkID":"A576B9F9-5C0A-453C-8DB0-939883FFA57A","Lat":"36.3893217","Lon":"-115.3202223"},{"ParkName":"Tumacácori National Historical Park","ParkID":"59E30CB1-C2C3-4444-BCA9-29B0FE16DCCD","Lat":"31.567824","Lon":"-111.051223"},{"ParkName":"Tupelo National Battlefield","ParkID":"0C7D40DF-85BC-439E-BE58-34E11C1D4095","Lat":"34.25557705","Lon":"-88.73708623"},{"ParkName":"Tuskegee Airmen National Historic Site","ParkID":"5AAB8CB5-2F62-4BD7-82D1-E19963FA94C1","Lat":"32.45538671","Lon":"-85.67983321"},{"ParkName":"Tuskegee Institute National Historic Site","ParkID":"3A9B0972-7F97-4F8C-9B44-A5FA8DEB1AC1","Lat":"32.42962115","Lon":"-85.70488498"},{"ParkName":"Tuzigoot National Monument","ParkID":"64B7871C-C058-45BA-BB7C-D3EAD50B23E8","Lat":"34.77296377","Lon":"-112.0279069"},{"ParkName":"Ulysses S Grant National Historic Site","ParkID":"89303609-703C-43CB-BA65-5BB96C3698C2","Lat":"38.55182374","Lon":"-90.35169255"},{"ParkName":"Upper Delaware Scenic &amp; Recreational River","ParkID":"09812D3A-1E2B-4402-9ABC-31C79BCB9F6B","Lat":"41.66172578","Lon":"-75.03861562"},{"ParkName":"Valles Caldera National Preserve","ParkID":"8908E0CA-3603-4578-B957-837F9813E6D5","Lat":"35.91682872","Lon":"-106.5195724"},{"ParkName":"Valley Forge National Historical Park","ParkID":"41813A9C-A947-4078-9DAA-4CE952F4E512","Lat":"40.10054985","Lon":"-75.44581889"},{"ParkName":"Vanderbilt Mansion National Historic Site","ParkID":"C200ADA5-F162-4D77-A820-950E13925129","Lat":"41.79697937","Lon":"-73.94205557"},{"ParkName":"Vicksburg National Military Park","ParkID":"45408368-12DB-4950-92A8-E26AC85E3724","Lat":"32.3621286","Lon":"-90.85030186"},{"ParkName":"Vietnam Veterans Memorial","ParkID":"DFCBAD2C-0B0A-47E8-9C3C-BF55BB3409B2","Lat":"38.89096297","Lon":"-77.04765735"},{"ParkName":"Virgin Islands Coral Reef National Monument","ParkID":"B2178CA4-35DE-4827-9B7A-B25FAAE1E69B","Lat":"18.28996918","Lon":"-64.70683395"},{"ParkName":"Virgin Islands National Park","ParkID":"C65070FE-942C-4E00-8C2B-64CA33C85B4A","Lat":"18.34279656","Lon":"-64.74194451"},{"ParkName":"Voyageurs National Park","ParkID":"859727CB-2812-40DF-B8DB-D4AE9EA00089","Lat":"48.48370609","Lon":"-92.8382913"},{"ParkName":"Waco Mammoth National Monument","ParkID":"46CA5FAF-2AEE-4795-B609-8CB81F9FBBEC","Lat":"31.60465887","Lon":"-97.17606143"},{"ParkName":"Walnut Canyon National Monument","ParkID":"8DFC9C19-FF0A-4B48-A34F-FD3D02BFE100","Lat":"35.16822994","Lon":"-111.5024239"},{"ParkName":"War In The Pacific National Historical Park","ParkID":"D44FE5CB-71B4-4B7C-A52A-41BE9D9211B3","Lat":"13.43795691","Lon":"144.6922461"},{"ParkName":"Washington Monument","ParkID":"37E34290-2E37-4A67-8C95-7A3442F354B1","Lat":"38.88948","Lon":"-77.035207"},{"ParkName":"Washington-Rochambeau Revolutionary Route National Historic Trail","ParkID":"3D547E73-F0BF-4FEA-9CAC-9611D024E2FF","Lat":"40.0958204557","Lon":"-74.8563515109"},{"ParkName":"Washita Battlefield National Historic Site","ParkID":"BE27CCA2-1ECA-4A6A-90E7-8EB38029FEF3","Lat":"35.62083963","Lon":"-99.70445143"},{"ParkName":"Weir Farm National Historical Park","ParkID":"EA86FED8-2E03-467A-A8BD-4F032A647F35","Lat":"41.25886268","Lon":"-73.45452542"},{"ParkName":"Whiskeytown National Recreation Area","ParkID":"89730CB2-BB7D-400B-AF35-5F95A574D97D","Lat":"40.61359941","Lon":"-122.6022657"},{"ParkName":"White Sands National Park","ParkID":"32D2B528-193E-43FA-BF38-32493D9E317D","Lat":"32.77907858","Lon":"-106.3333461"},{"ParkName":"Whitman Mission National Historic Site","ParkID":"10505DA0-A627-47EA-8533-5C67C3B2AF15","Lat":"46.04119286","Lon":"-118.4629388"},{"ParkName":"William Howard Taft National Historic Site","ParkID":"8CB65BC9-2A9D-4AA0-A5E2-B64E9CDA1575","Lat":"39.11970352","Lon":"-84.50758951"},{"ParkName":"Wilson's Creek National Battlefield","ParkID":"2067FAB2-41D4-43DF-8142-9B1FC40AFDFC","Lat":"37.1000127","Lon":"-93.40986704"},{"ParkName":"Wind Cave National Park","ParkID":"37C48EE0-2881-4D22-8F91-A249AE3B0CD0","Lat":"43.58012365","Lon":"-103.4394709"},{"ParkName":"Wing Luke Museum Affiliated Area","ParkID":"CEC8BD62-9229-4455-ABE8-F4310F4AB623","Lat":"47.59820859","Lon":"-122.3228912"},{"ParkName":"Wolf Trap National Park for the Performing Arts","ParkID":"72F41D84-A8ED-47FC-935A-2FD28C3C582E","Lat":"38.93854526","Lon":"-77.265089"},{"ParkName":"Women's Rights National Historical Park","ParkID":"09689FA5-2147-4BF2-935C-AE92AB85A2E5","Lat":"42.90817073","Lon":"-76.81655558"},{"ParkName":"World War I Memorial","ParkID":"3B4879C9-E8D3-4B0C-9F6D-8345FAA298A6","Lat":"38.8959","Lon":"-77.0329"},{"ParkName":"World War II Memorial","ParkID":"F85AF8D0-1B85-4B2C-9356-840A4AF6A354","Lat":"38.88923917","Lon":"-77.0403759"},{"ParkName":"Wrangell - St Elias National Park &amp; Preserve","ParkID":"B7944940-3FE5-4F9B-80AB-2FD78A4CDD48","Lat":"61.4182147","Lon":"-142.6028439"},{"ParkName":"Wright Brothers National Memorial","ParkID":"E2AE772D-7A2B-49CC-9AFA-E8F068506B22","Lat":"36.01637713","Lon":"-75.66997163"},{"ParkName":"Wupatki National Monument","ParkID":"686C8EC8-5487-43B9-B5E8-FCABD56227F0","Lat":"35.55741077","Lon":"-111.3957216"},{"ParkName":"Yellowstone National Park","ParkID":"F58C6D24-8D10-4573-9826-65D42B8B83AD","Lat":"44.59824417","Lon":"-110.5471695"},{"ParkName":"Yorktown Battlefield Part of Colonial National Historical Park","ParkID":"D09FF0F8-B16E-4D2B-9C37-03202D6B8176","Lat":"37.2195","Lon":"-76.4983"},{"ParkName":"Yosemite National Park","ParkID":"4324B2B4-D1A3-497F-8E6B-27171FAE4DB2","Lat":"37.84883288","Lon":"-119.5571873"},{"ParkName":"Yucca House National Monument","ParkID":"9854D136-AFC0-4966-BB40-FE9323B56A49","Lat":"37.24778944","Lon":"-108.6861274"},{"ParkName":"Yukon - Charley Rivers National Preserve","ParkID":"6F550E4D-AE26-4250-A674-397E2DF88092","Lat":"65.0935608","Lon":"-142.7960021"},{"ParkName":"Zion National Park","ParkID":"41BAB8ED-C95F-447D-9DA1-FCC4E4D808B2","Lat":"37.29839254","Lon":"-113.0265138"}]